[
  {
    "color": "",
    "lat": "",
    "lon": "",
    "metadata": ["", "", "", "", ""],
    "name": "ANDALUCÍA",
    "value": ""
  },
  {
    "color": "Casos detectados",
    "lat": "36.8304075",
    "lon": "-2.4637136",
    "metadata": [
      "23",
      "23",
      "0",
      "0",
      "Entre ellos hay un paciente de 28 años, residente en Milán, que está ingresado en  el Hospital Mediterráneo de Almería."
    ],
    "name": "Almería",
    "value": "23"
  },
  {
    "color": "Casos detectados",
    "lat": "37.211887",
    "lon": "-6.983576",
    "metadata": ["6", "6", "0", "0", ""],
    "name": "Huelva",
    "value": "6"
  },
  {
    "color": "Casos detectados",
    "lat": "37.3842599",
    "lon": "-5.9951171",
    "metadata": [
      "84",
      "83",
      "1",
      "0",
      "En esta provincia se detectó el caso del primer paciente que no había viajado fuera de España, un hombre de 62 años ingresado en el Hospital Universitario Virgen del  Rocío. Los sanitarios que lo trataron también han dado positivo."
    ],
    "name": "Sevilla",
    "value": "84"
  },
  {
    "color": "Casos detectados",
    "lat": "36.533694",
    "lon": "-6.290707",
    "metadata": ["48", "48", "0", "0", ""],
    "name": "Cádiz",
    "value": "48"
  },
  {
    "color": "Casos detectados",
    "lat": "36.7183391",
    "lon": "-4.5193067",
    "metadata": [
      "235",
      "230",
      "0",
      "5",
      "Una de las muertes es la de un joven de 21 años con leucemia. Además, Málaga registró el primer muerto de la comunidad: un hombre de 70 años con patologías previas. <br>Se han diagnosticado casos en Málaga, Alhurín de la Torre, Fuengirola y Marbella. Entre ellos hay personas que habían viajado recientemente a Emilia-Romagna y otros casos relacionados con el primer paciente confirmado en la región, que se encuentra en Sevilla."
    ],
    "name": "Málaga",
    "value": "235"
  },
  {
    "color": "Casos detectados",
    "lat": "37.8915500",
    "lon": "-4.7727500",
    "metadata": [
      "41",
      "41",
      "0",
      "0",
      "Entre ellos hay un hombre de 26 años que había viajado recientemente a Italia."
    ],
    "name": "Córdoba",
    "value": "41"
  },
  {
    "color": "Casos detectados",
    "lat": "37.185112",
    "lon": "-3.603804",
    "metadata": ["67", "67", "0", "0", ""],
    "name": "Granada",
    "value": "67"
  },
  {
    "color": "Casos detectados",
    "lat": "37.777244",
    "lon": "-3.789398",
    "metadata": [
      "50",
      "48",
      "0",
      "2",
      "El fallecido era un hombre de 89 años, ingresado con patologías previas. <br>Entre ellos hay una enfermera de 25 años de Arjonilla que trató a uno de los pacientes contagiados en Torrejón de Ardoz (Madrid)."
    ],
    "name": "Jaén",
    "value": "50"
  },
  {
    "color": "",
    "lat": "",
    "lon": "",
    "metadata": ["", "", "", "", ""],
    "name": "ARAGÓN",
    "value": ""
  },
  {
    "color": "Casos detectados",
    "lat": "40.343765",
    "lon": "-1.108604",
    "metadata": ["24", "23", "0", "1", ""],
    "name": "Teruel",
    "value": "24"
  },
  {
    "color": "Casos detectados",
    "lat": "41.669635",
    "lon": "-0.890789",
    "metadata": [
      "163",
      "152",
      "0",
      "11",
      "Entre los fallecidos hay tres hombres de 87, 85 y 93 años."
    ],
    "name": "Zaragoza",
    "value": "163"
  },
  {
    "color": "Casos detectados",
    "lat": "42.136924",
    "lon": "-0.407651",
    "metadata": ["17", "17", "0", "0", ""],
    "name": "Huesca",
    "value": "17"
  },
  {
    "color": "",
    "lat": "",
    "lon": "",
    "metadata": ["", "", "", "", ""],
    "name": "ASTURIAS",
    "value": ""
  },
  {
    "color": "Casos detectados",
    "lat": "43.3694815",
    "lon": "-5.8836772",
    "metadata": [
      "193",
      "189",
      "3",
      "1",
      "Un varón de 68 es el primer fallecido de esta región. Es un jefe de estudios de uno de los centros educativos que han suspendido la actividad por el brote.<br>De estas personas, 11 se encuentran ingresadas, dos en estado grave, y seis están en seguimiento domiciliario.<br>Las personas dadas de alta son dos hombres: uno de 30 años que viajó al norte de Italia y otro de 48 años que permanecía aislado en su domicilio."
    ],
    "name": "Asturias",
    "value": "193"
  },
  {
    "color": "",
    "lat": "",
    "lon": "",
    "metadata": ["", "", "", "", ""],
    "name": "BALEARES",
    "value": ""
  },
  {
    "color": "Casos detectados",
    "lat": "39.568763",
    "lon": "2.640982",
    "metadata": [
      "92",
      "89",
      "2",
      "1",
      "Se han registrado casos en Mallorca, Menorca e Ibiza.<br>El primer fallecimiento en esta comunidad autónoma fue el de una mujer con patología crónica que había dado positivo y estaba ingresada en el Hospital Universitario Son Espases. Además, hay dos personas dadas de alta, el primero un hombre desde hace un mes.<br>NOTA: La Consejería de Salud y Consumo no ofrece datos desglosados por islas."
    ],
    "name": "Illes Balears",
    "value": "92"
  },
  {
    "color": "",
    "lat": "",
    "lon": "",
    "metadata": ["", "", "", "", ""],
    "name": "CANARIAS",
    "value": ""
  },
  {
    "color": "Casos detectados",
    "lat": "28.463688",
    "lon": "-16.254065",
    "metadata": [
      "66",
      "61",
      "5",
      "0",
      "Sanidad ha informado de cinco casos más de los que comunica la consejería de Sanidad de la comunidad.\n<b>La mayoría de los casos se relacionan con la localidad de Adeje. Una persona ha sido de alta."
    ],
    "name": "Tenerife",
    "value": "66"
  },
  {
    "color": "Casos detectados",
    "lat": "28.389891",
    "lon": "-14.048134",
    "metadata": [
      "6",
      "6",
      "0",
      "0",
      "Sanidad ha informado de cinco casos más de los que comunica la consejería de Sanidad de la comunidad. <br>El único caso confirmado hasta ahora en la isla es el de una persona que viajó a Italia y que ya recibió el alta."
    ],
    "name": "Fuerteventura",
    "value": "6"
  },
  {
    "color": "Casos detectados",
    "lat": "28.115510",
    "lon": "-17.220502",
    "metadata": [
      "3",
      "1",
      "2",
      "0",
      "Sanidad ha informado de cinco casos más de los que comunica la consejería de Sanidad de la comunidad.<br>Dos personas han sido dadas de alta."
    ],
    "name": "La Gomera",
    "value": "3"
  },
  {
    "color": "Casos detectados",
    "lat": "28.712026",
    "lon": "-17.891119",
    "metadata": [
      "5",
      "5",
      "0",
      "0",
      "Sanidad ha informado de cinco casos más de los que comunica la consejería de Sanidad de la comunidad."
    ],
    "name": "La Palma",
    "value": "5"
  },
  {
    "color": "Casos detectados",
    "lat": "29.050117",
    "lon": "-13.601276",
    "metadata": [
      "4",
      "4",
      "0",
      "0",
      "Sanidad ha informado de cinco casos más de los que comunica la consejería de Sanidad de la comunidad."
    ],
    "name": "Lanzarote",
    "value": "4"
  },
  {
    "color": "Casos detectados",
    "lat": "28.123639",
    "lon": "-15.441334",
    "metadata": [
      "35",
      "34",
      "0",
      "1",
      "Sanidad ha informado de cinco casos más de los que comunica la consejería de Sanidad de la comunidad.<br>El primer fallecimiento fue el de una mujer de más de 80 años con patologías previas el 13 de marzo. Cuatro mujeres italianas han dado positivo. Otros dos turistas holandeses han ingresado en la región, pero ambos permanecen estables."
    ],
    "name": "Gran Canaria",
    "value": "35"
  },
  {
    "color": "Casos detectados",
    "lat": "43.4503513",
    "lon": "-3.8510124",
    "metadata": ["58", "48", "10", "0", ""],
    "name": "Cantabria",
    "value": "58"
  },
  {
    "color": "",
    "lat": "",
    "lon": "",
    "metadata": ["", "", "", "", ""],
    "name": "CASTILLA-LA MANCHA",
    "value": ""
  },
  {
    "color": "Casos detectados",
    "lat": "40.6304428",
    "lon": "-3.1693281",
    "metadata": [
      "137",
      "135",
      "2",
      "0",
      "La mayoría de pacientes están ingresados en el  Hospital Universitario de Guadalajara."
    ],
    "name": "Guadalajara",
    "value": "137"
  },
  {
    "color": "Casos detectados",
    "lat": "38.992194",
    "lon": "-1.8956089",
    "metadata": [
      "126",
      "119",
      "2",
      "5",
      "La primera muerte con coronavirus en Castilla-La Mancha fue la de una mujer de 82 años en esta provincia."
    ],
    "name": "Albacete",
    "value": "126"
  },
  {
    "color": "Casos detectados",
    "lat": "39.8622699",
    "lon": "-4.0344493",
    "metadata": ["133", "125", "5", "3", ""],
    "name": "Toledo",
    "value": "133"
  },
  {
    "color": "Casos detectados",
    "lat": "38.984637",
    "lon": "-3.929478",
    "metadata": ["127", "116", "4", "7", ""],
    "name": "Ciudad Real",
    "value": "127"
  },
  {
    "color": "Casos detectados",
    "lat": "40.068536",
    "lon": "-2.139614",
    "metadata": ["44", "42", "0", "2", ""],
    "name": "Cuenca",
    "value": "44"
  },
  {
    "color": "",
    "lat": "",
    "lon": "",
    "metadata": ["", "", "", "", ""],
    "name": "CASTILLA Y LEÓN",
    "value": ""
  },
  {
    "color": "Casos detectados",
    "lat": "42.6036003",
    "lon": "-5.6124107",
    "metadata": [
      "47",
      "45",
      "1",
      "1",
      "Cinco personas han sido diagnosticadas, entre ellas un hombre de 62 años que viajó a Lombardía (Italia) dos veces en febrero por motivos de trabajo."
    ],
    "name": "León",
    "value": "47"
  },
  {
    "color": "Casos detectados",
    "lat": "40.656103",
    "lon": "-4.685112",
    "metadata": ["17", "17", "0", "0", ""],
    "name": "Ávila",
    "value": "17"
  },
  {
    "color": "Casos detectados",
    "lat": "42.342344",
    "lon": "-3.701732",
    "metadata": [
      "121",
      "117",
      "0",
      "4",
      "Varios de los infectados están ingresados en el hospital de Miranda de Ebro. Una profesional sanitaria del Servicio Vasco de Salud que  estuvo en contacto estrecho con un caso atendido en Vitoria está ingresada en el Complejo Asistencial Universitario de Burgos."
    ],
    "name": "Burgos",
    "value": "121"
  },
  {
    "color": "Casos detectados",
    "lat": "42.015064",
    "lon": "-4.530044",
    "metadata": ["6", "6", "0", "0", ""],
    "name": "Palencia",
    "value": "6"
  },
  {
    "color": "Casos detectados",
    "lat": "40.9688200",
    "lon": "-5.6638800",
    "metadata": [
      "32",
      "25",
      "3",
      "4",
      "El primer fallecido en esta comunidad se trata de un varón de 81 años que tenía neumonía y patologías previas.<br>Uno de los contagiados es una estudiante de 19 años que viajó a Italia en febrero."
    ],
    "name": "Salamanca",
    "value": "32"
  },
  {
    "color": "Casos detectados",
    "lat": "40.944132",
    "lon": "-4.109112",
    "metadata": [
      "33",
      "30",
      "0",
      "3",
      "Los dos casos son hombres jóvenes que habían regresado recientemente de Italia y ha dado positivo en coronavirus."
    ],
    "name": "Segovia",
    "value": "33"
  },
  {
    "color": "Casos detectados",
    "lat": "41.712327",
    "lon": "-4.730597",
    "metadata": [
      "56",
      "56",
      "0",
      "0",
      "Un hombre de 28 años originario de Irán se encuentra ingresado en el Hospital Universitario Río Hortega de Valladolid. La otra diagnosticada es una joven de 21 años."
    ],
    "name": "Valladolid",
    "value": "56"
  },
  {
    "color": "Casos detectados",
    "lat": "41.766032",
    "lon": "-2.477326",
    "metadata": ["10", "9", "1", "0", ""],
    "name": "Soria",
    "value": "10"
  },
  {
    "color": "Casos detectados",
    "lat": "41.5063300",
    "lon": "-5.7445600",
    "metadata": ["12", "12", "0", "0", ""],
    "name": "Zamora",
    "value": "12"
  },
  {
    "color": "",
    "lat": "",
    "lon": "",
    "metadata": ["", "", "", "", ""],
    "name": "CATALUÑA",
    "value": ""
  },
  {
    "color": "Casos detectados",
    "lat": "41.748337",
    "lon": "1.370409",
    "metadata": [
      "1394",
      "1373",
      "3",
      "18",
      "En Cataluña se han confirmado casos en Barcelona, Lleida y Girona y tres de los fallecidos son del municipio de Igualada. <br>NOTA: La Generalitat no facilita datos desglosados por provincias."
    ],
    "name": "Cataluña",
    "value": "1394"
  },
  {
    "color": "",
    "lat": "",
    "lon": "",
    "metadata": ["", "", "", "", ""],
    "name": "CEUTA",
    "value": ""
  },
  {
    "color": "Casos detectados",
    "lat": "35.8890513",
    "lon": "-5.3535453",
    "metadata": [
      "1",
      "1",
      "",
      "",
      "Se trata de un joven que llegó a la ciudad procedente de Madrid, donde estudiaba."
    ],
    "name": "Ceuta",
    "value": "1"
  },
  {
    "color": "",
    "lat": "",
    "lon": "",
    "metadata": ["", "", "", "", ""],
    "name": "C. VALENCIANA",
    "value": ""
  },
  {
    "color": "Casos detectados",
    "lat": "39.4697500",
    "lon": "-0.3773900",
    "metadata": [
      "541",
      "516",
      "12",
      "13",
      "La Comunidad Valenciana confirmó el primer paciente fallecido en España con coronavirus.<br>NOTA: La Generalitat no facilita datos desagregados por provincias."
    ],
    "name": "Comunidad Valenciana",
    "value": "541"
  },
  {
    "color": "",
    "lat": "",
    "lon": "",
    "metadata": ["", "", "", "", ""],
    "name": "EXTREMADURA",
    "value": ""
  },
  {
    "color": "Casos detectados",
    "lat": "38.8793591",
    "lon": "-7.0577191",
    "metadata": ["39", "36", "3", "0", "Hay casos en Badajoz, Zafra, Mérida y Don Benito."],
    "name": "Badajoz",
    "value": "39"
  },
  {
    "color": "Casos detectados",
    "lat": "39.4716313",
    "lon": "-6.4257387",
    "metadata": [
      "89",
      "84",
      "2",
      "3",
      "La primera muerte con coronavirus en esta provincia es una mujer de 59 años de Arroyo de la Luz, cuyo funeral se ha restringido a la estricta intimidad por seguridad."
    ],
    "name": "Cáceres",
    "value": "89"
  },
  {
    "color": "",
    "lat": "",
    "lon": "",
    "metadata": ["", "", "", "", ""],
    "name": "GALICIA",
    "value": ""
  },
  {
    "color": "Casos detectados",
    "lat": "43.361186",
    "lon": "-8.411139",
    "metadata": ["127", "123", "3", "1", ""],
    "name": "A Coruña",
    "value": "127"
  },
  {
    "color": "Casos detectados",
    "lat": "43.009960",
    "lon": "-7.558646",
    "metadata": ["16", "16", "0", "0", ""],
    "name": "Lugo",
    "value": "16"
  },
  {
    "color": "Casos detectados",
    "lat": "42.335316",
    "lon": "-7.864973",
    "metadata": ["28", "28", "0", "0", ""],
    "name": "Ourense",
    "value": "28"
  },
  {
    "color": "Casos detectados",
    "lat": "42.430185",
    "lon": "-8.644496",
    "metadata": [
      "74",
      "72",
      "0",
      "2",
      "La primera fallecida era una mujer de 92 años con \"múltiples patologías\" que estaba ingresada en Vigo."
    ],
    "name": "Pontevedra",
    "value": "74"
  },
  {
    "color": "",
    "lat": "",
    "lon": "",
    "metadata": ["", "", "", "", ""],
    "name": "MADRID",
    "value": ""
  },
  {
    "color": "Casos detectados",
    "lat": "40.4165000",
    "lon": "-3.7025600",
    "metadata": [
      "4871",
      "4184",
      "951",
      "355",
      "La primera muerte en Madrid fue la de una mujer de 99 años el 3 de marzo."
    ],
    "name": "Madrid",
    "value": "4871"
  },
  {
    "color": "",
    "lat": "",
    "lon": "",
    "metadata": ["", "", "", "", ""],
    "name": "MELILLA",
    "value": ""
  },
  {
    "color": "Casos detectados",
    "lat": "35.291937",
    "lon": "-2.938484",
    "metadata": [
      "8",
      "8",
      "0",
      "0",
      "Los dos primeros pacientes  permanecen en aislamiento en el Hospital Comarcal. El estado de las dos personas es estable y la sintomatología que presentan es muy leve."
    ],
    "name": "Melilla",
    "value": "8"
  },
  {
    "color": "",
    "lat": "",
    "lon": "",
    "metadata": ["", "", "", "", ""],
    "name": "MURCIA",
    "value": ""
  },
  {
    "color": "Casos detectados",
    "lat": "37.9805272",
    "lon": "-1.1621948",
    "metadata": [
      "103",
      "102",
      "1",
      "0",
      "El primer caso de coronavirus en Murcia se trata de una mujer de 27 años que viajó recientemente a Madrid y se encuentra ingresada en el hospital Virgen de la Arrixaca, de El Palmar, mientras que el segundo caso es un bebé de cinco meses con síntomas leves procedente de un viaje a Madrid. Además, la madre del bebé ha dado positivo. A ellos se suma una mujer de 28 años que estuvo en contacto con la primera infectada."
    ],
    "name": "Murcia",
    "value": "103"
  },
  {
    "color": "",
    "lat": "",
    "lon": "",
    "metadata": ["", "", "", "", ""],
    "name": "NAVARRA",
    "value": ""
  },
  {
    "color": "Casos detectados",
    "lat": "42.8157447",
    "lon": "-1.7200615",
    "metadata": [
      "313",
      "309",
      "2",
      "2",
      "La primera fallecida en la región es una mujer de 87 años que estaba ingresada desde el 12 de marzo.<br>De entre los casos, algunos estaban vinculados al entorno familiar cercano de los positivos registrados en días previos. Los trece pacientes que se encuentran actualmente ingresados en centros hospitalarios o en atención domiciliaria permanecen estables."
    ],
    "name": "Navarra",
    "value": "313"
  },
  {
    "color": "",
    "lat": "",
    "lon": "",
    "metadata": ["", "", "", "", ""],
    "name": "PAÍS VASCO",
    "value": ""
  },
  {
    "color": "Casos detectados",
    "lat": "42.869739",
    "lon": "-2.680704",
    "metadata": [
      "474",
      "449",
      "0",
      "25",
      "Cuatro personas han muerto en Vitoria. Se trata de tres mujeres de 87, 88 y 92 años y un varón de 90 años. Preocupa el hospital de Txagorritxu por el contagio de varios sanitarios cuyo origen está por identificar."
    ],
    "name": "Araba/Álava",
    "value": "474"
  },
  {
    "color": "Casos detectados",
    "lat": "43.2633534",
    "lon": "-2.951074",
    "metadata": [
      "201",
      "195",
      "0",
      "6",
      "Un hombre de 82 años que fue diagnosticado con neumonía murió el mismo día en que fue diagnosticado con el Covid-19."
    ],
    "name": "Bizkaia/Vizcaya",
    "value": "201"
  },
  {
    "color": "Casos detectados",
    "lat": "43.154491",
    "lon": "-2.218345",
    "metadata": [
      "80",
      "55",
      "0",
      "5",
      "Un paciente que había viajado en los últimos 15 días a Italia o Andalucía. El otro es un profesional sanitario que no guarda relación alguna con pacientes de riesgo."
    ],
    "name": "Gipuzkoa/Guipúzcoa",
    "value": "80"
  },
  {
    "color": "",
    "lat": "",
    "lon": "",
    "metadata": ["", "", "", "", ""],
    "name": "LA RIOJA",
    "value": ""
  },
  {
    "color": "Casos detectados",
    "lat": "42.464168",
    "lon": "-2.453673",
    "metadata": [
      "355",
      "348",
      "2",
      "5",
      "Sanidad destaca que la cantidad de casos en esta comunidad autónoma está asociada a un único evento de transmisión, que no debería suponer un riesgo poblacional."
    ],
    "name": "La Rioja",
    "value": "355"
  }
]
